City_ID,City,Lat,Lng,Max Temp,Humidity,Cloudiness,Wind Speed,Country,Date
0,port alfred,-33.5906,26.891,22.88,89,0,3.13,ZA,1737219377
1,asentamiento humano nicolas de pierola,-11.95,-76.7,26.5,59,29,4.54,PE,1737219417
2,hamilton,39.1834,-84.5333,4.79,93,100,3.6,US,1737219270
3,isafjordur,66.0755,-23.124,-1.98,64,100,12.35,IS,1737219384
4,terrace,54.5163,-128.6035,-1.05,93,100,4.63,CA,1737219420
5,elkton,39.6068,-75.8333,4.56,76,100,0.45,US,1737219421
6,waitangi,-43.9535,-176.5597,12.12,97,99,0.89,NZ,1737219393
7,namibe,-15.1961,12.1522,22.86,74,94,5.6,AO,1737219424
8,bamboo flat,11.7,92.7167,27.05,74,20,3.09,IN,1737219425
9,puerto ayora,-0.7393,-90.3518,26.42,89,9,2.24,EC,1737219357
10,ushuaia,-54.8,-68.3,12.81,50,75,18.01,AR,1737219336
11,beyla,8.6833,-8.6333,32.69,14,24,3.11,GN,1737219428
12,san patricio,28.017,-97.5169,20.97,35,100,5.85,US,1737219429
13,alaghsas,17.0187,8.0168,30.94,11,0,7.2,NE,1737219431
14,longyearbyen,78.2186,15.6401,-18.09,60,0,5.14,SJ,1737219432
15,georgetown,5.4112,100.3354,26.96,72,20,3.6,MY,1737219265
16,perryton,36.4,-100.8027,-3.04,74,100,8.23,US,1737219434
17,acapulco de juarez,16.8634,-99.8901,24.69,69,1,1.48,MX,1737219186
18,iqaluit,63.7506,-68.5145,-17.15,77,100,2.57,CA,1737219380
19,suzun,53.7841,82.3116,-13.98,98,100,2.34,RU,1737219437
20,tadine,-21.55,167.8833,25.01,86,99,1.95,NC,1737219438
21,olonkinbyen,70.9221,-8.7187,-7.37,68,100,9.56,SJ,1737219368
22,constitucion,-35.3333,-72.4167,19.96,53,2,4.34,CL,1737219441
23,utrik,11.2278,169.8474,26.36,77,83,10.65,MH,1737219392
24,grytviken,-54.2811,-36.5092,4.69,80,99,6.14,GS,1737219316
25,kavaratti,10.5669,72.642,27.32,70,100,0.57,IN,1737219378
26,nabire,-3.3667,135.4833,24.74,94,100,1.87,ID,1737219445
27,kourou,5.1552,-52.6478,28.86,53,9,2.94,GF,1737219446
28,kolonia,50.9333,6.95,2.36,82,0,1.54,DE,1737219447
29,papao,-17.75,-149.55,25.82,74,100,2.7,PF,1737219449
30,margaret river,-33.95,115.0667,13.99,68,39,5.45,AU,1737219322
31,praia da vitoria,38.7333,-27.0667,18.14,59,20,1.48,PT,1737219451
32,porto novo,6.4965,2.6036,28.9,66,100,5.22,BJ,1737219261
33,blackmans bay,-43.0167,147.3167,14.07,81,43,4.39,AU,1737219453
34,santiago de cao,-7.9589,-79.2392,20.07,83,34,4.63,PE,1737219340
35,adamstown,-25.066,-130.1015,24.65,88,1,5.28,PN,1737219349
36,tynda,55.1667,124.7167,-25.12,99,100,1.11,RU,1737219456
37,alotau,-10.3069,150.4462,25.1,91,100,1.77,PG,1737219458
38,lihue,21.9789,-159.3672,17.77,82,40,2.57,US,1737219363
39,upper grand lagoon,30.1633,-85.7408,21.12,90,75,7.72,US,1737219460
40,vorkuta,67.5,64.0,-21.2,100,98,1.57,RU,1737219461
41,west island,-12.1568,96.8225,27.99,78,40,6.17,CC,1737219408
42,usogorsk,63.4106,48.6872,0.49,98,100,3.83,RU,1737219463
43,whitehorse,60.7161,-135.0538,-14.57,84,40,2.57,CA,1737219056
44,qarchi gak,37.04,66.7889,2.94,93,100,4.48,AF,1737219465
45,bubaque,11.2833,-15.8333,25.88,53,75,5.83,GW,1737219467
46,kayyerkan,69.3786,87.7439,-16.6,95,100,4.05,RU,1737219468
47,fort bragg,35.139,-79.006,6.85,90,100,2.06,US,1737219469
48,korla,41.7597,86.1469,-9.85,92,82,0.57,CN,1737219470
49,edinburgh of the seven seas,-37.0676,-12.3116,14.77,64,95,5.75,SH,1737219471
50,bethel,41.3712,-73.414,5.56,79,0,2.06,US,1737219354
51,battle ground,45.7809,-122.5334,0.85,97,93,0.89,US,1737219474
52,kingston,17.997,-76.7936,31.76,55,20,3.09,JM,1737219400
53,touros,-5.1989,-35.4608,29.21,63,97,5.41,BR,1737219199
54,talnakh,69.4865,88.3972,-16.39,96,100,4.17,RU,1737219479
55,jijel,36.8205,5.7667,13.97,82,40,2.57,DZ,1737219481
56,tocopilla,-22.092,-70.1979,23.82,71,0,4.84,CL,1737219482
57,puerto natales,-51.7236,-72.4875,18.25,42,75,12.86,CL,1737219325
58,port-aux-francais,-49.35,70.2167,5.63,76,38,13.7,TF,1737219317
59,albany,42.6001,-73.9662,2.69,73,100,2.68,US,1737219305
60,yellowknife,62.456,-114.3525,-34.69,75,20,2.57,CA,1737219305
61,tiksi,71.6872,128.8694,-30.54,98,96,2.47,RU,1737219488
62,la puebla de montalban,39.863,-4.3592,7.65,58,0,0.83,ES,1737219490
63,lagoa,39.05,-27.9833,15.29,50,1,1.55,PT,1737219491
64,ribeira grande,38.5167,-28.7,17.65,63,20,4.02,PT,1737219492
65,surgana,20.5667,73.6167,19.93,36,0,2.23,IN,1737219493
66,yeed,4.55,43.0333,29.2,24,78,4.71,SO,1737219494
67,cidreira,-30.1811,-50.2056,24.75,86,91,4.06,BR,1737219495
68,kapuskasing,49.4169,-82.4331,-18.95,78,100,7.2,CA,1737219302
69,udachny,66.4167,112.4,-33.59,100,97,1.63,RU,1737219330
70,san francisco telixtlahuaca,17.3,-96.9,23.51,39,0,1.33,MX,1737219499
71,ust-nera,64.5667,143.2,-40.38,100,76,2.03,RU,1737219500
72,tandil,-37.3217,-59.1332,32.48,14,76,4.51,AR,1737219323
73,college,64.8569,-147.8028,-18.03,77,40,0.0,US,1737219337
74,saint-philippe,-21.3585,55.7679,25.98,79,92,4.39,RE,1737219503
75,qaqortoq,60.7167,-46.0333,-9.8,70,72,4.08,GL,1737219327
76,avarua,-21.2078,-159.775,24.03,94,75,2.06,CK,1737219385
77,basco,20.4487,121.9702,21.95,82,100,9.78,PH,1737219507
78,san juan de miraflores,-12.1629,-76.9635,24.29,73,34,4.8,PE,1737219508
79,bredasdorp,-34.5322,20.0403,21.59,50,0,4.65,ZA,1737219389
80,chonchi,-42.6128,-73.8092,20.27,44,1,1.79,CL,1737219510
81,kodiak,57.79,-152.4072,4.73,100,100,7.2,US,1737219399
82,anadyr,64.75,177.4833,-24.72,75,40,8.0,RU,1737219360
83,selfoss,63.9331,-20.9971,1.69,86,100,6.51,IS,1737219440
84,karratha,-20.7377,116.8463,26.18,92,100,14.23,AU,1737219514
85,taunggyi,20.7833,97.0333,12.04,60,21,0.75,MM,1737219515
86,ballina,-28.8667,153.5667,22.72,77,100,9.98,AU,1737219517
87,awjilah,29.1081,21.2869,17.88,38,100,1.68,LY,1737219518
88,kone,-21.0595,164.8658,23.78,84,100,1.35,NC,1737219519
89,la passe,45.5549,-0.8967,3.95,76,1,1.43,FR,1737219520
90,zhangye,38.9342,100.4517,-4.01,43,34,3.14,CN,1737219521
91,vohenstrauss,49.6238,12.3381,2.18,81,2,3.17,DE,1737219522
92,bilibino,68.0546,166.4372,-31.11,95,11,2.23,RU,1737219359
93,labrador city,52.9463,-66.9114,-8.23,81,100,10.73,CA,1737219525
94,fale old settlement,-9.3852,-171.2468,27.72,78,43,4.88,TK,1737219526
95,zunyi,27.6867,106.9072,7.66,84,100,1.49,CN,1737219527
96,lorengau,-2.0226,147.2712,28.06,77,69,3.4,PG,1737219528
97,varto,39.1732,41.4559,-8.22,75,47,3.76,TR,1737219529
98,quirihue,-36.2833,-72.5333,28.25,19,0,2.35,CL,1737219530
99,chifeng,42.2683,118.9636,-6.13,47,2,3.9,CN,1737219531
100,nar'yan-mar,67.6713,53.087,-9.83,95,100,7.17,RU,1737219533
101,prince rupert,54.3161,-130.3201,2.83,96,100,5.14,CA,1737219386
102,hami,42.8,93.45,-6.01,55,15,1.65,CN,1737219535
103,qulsary,46.9531,54.0198,0.09,99,100,3.68,KZ,1737219536
104,invercargill,-46.4,168.35,10.57,91,100,0.45,NZ,1737219414
105,nemuro,43.3236,145.575,-6.4,75,5,2.68,JP,1737219539
106,thunder bay,48.4001,-89.3168,-19.01,55,40,7.72,CA,1737219540
107,souillac,-20.5167,57.5167,27.21,69,20,2.06,MU,1737219542
108,petropavlovsk-kamchatsky,53.0452,158.6483,-17.67,66,0,4.0,RU,1737219396
109,dudinka,69.4058,86.1778,-14.4,95,100,4.67,RU,1737219544
110,kodinsk,58.6881,99.1844,-18.43,100,100,1.02,RU,1737219545
111,codrington,-38.2667,141.9667,15.54,72,3,3.37,AU,1737219546
112,minas de marcona,-15.2119,-75.1103,22.68,53,86,7.33,PE,1737219547
113,okakarara,-20.5833,17.4333,27.44,31,100,6.99,NA,1737219548
114,santarem,-2.4431,-54.7083,27.07,78,75,4.63,BR,1737219550
115,thompson,55.7435,-97.8558,-32.91,68,0,5.66,CA,1737219551
116,berdigestyakh,62.0989,126.6992,-37.87,100,91,1.05,RU,1737219552
117,vorgashor,67.5833,63.95,-20.15,99,96,2.36,RU,1737219553
118,stanley,54.868,-1.6985,1.4,89,20,1.03,GB,1737219554
119,hawaiian paradise park,19.5933,-154.9731,19.29,99,7,0.45,US,1737219555
120,general conesa,-40.1,-64.4333,32.29,24,21,4.18,AR,1737219556
121,tazovsky,67.4667,78.7,-15.56,96,100,2.5,RU,1737219558
122,bodo,67.28,14.405,1.54,95,75,6.17,NO,1737219442
123,labytnangi,66.6572,66.4183,-19.15,96,63,2.06,RU,1737219561
124,beau vallon,-20.4189,57.6953,27.13,69,20,2.06,MU,1737219562
125,suntar,62.1444,117.6319,-16.95,96,100,2.72,RU,1737219563
126,richlands,37.0932,-81.7937,1.49,96,100,2.13,US,1737219269
127,chulym,55.0997,80.9572,-14.73,97,99,3.85,RU,1737219566
128,carnarvon,-24.8667,113.6333,26.11,80,25,8.3,AU,1737219568
129,yeppoon,-23.1333,150.7333,23.58,78,0,1.91,AU,1737219569
130,gazli,40.1333,63.45,5.36,62,98,3.18,UZ,1737219570
131,severna park,39.0704,-76.5452,5.16,76,100,2.57,US,1737219571
132,huoqiu chengguanzhen,32.3547,116.2939,6.98,22,2,2.76,CN,1737219573
133,port lincoln,-34.7333,135.8667,21.27,70,44,2.91,AU,1737219574
134,poptun,16.3311,-89.4169,25.45,58,22,3.34,GT,1737219575
135,egilsstadir,65.2653,-14.3948,-3.05,100,100,8.23,IS,1737219577
136,nuuk,64.1835,-51.7216,-2.66,68,75,9.26,GL,1737219300
137,vilyuchinsk,52.9306,158.4028,-16.85,84,29,4.2,RU,1737219579
138,marti,22.9475,-80.9203,29.6,49,1,4.96,CU,1737219581
139,ilulissat,69.2167,-51.1,-13.68,76,100,2.45,GL,1737219583
140,crane,31.3974,-102.3501,8.45,42,0,3.54,US,1737219584
141,calama,-22.4667,-68.9333,22.27,18,0,6.17,CL,1737219585
142,fortuna,40.5982,-124.1573,3.51,100,0,3.09,US,1737219586
143,haiku-pauwela,20.9219,-156.3051,21.78,81,20,7.15,US,1737219460
144,gadzhiyevo,69.2551,33.3362,1.87,99,100,8.55,RU,1737219588
145,taoudenni,22.6783,-3.9836,20.75,13,98,2.1,ML,1737219589
146,tanque verde,32.2517,-110.7373,11.24,36,0,1.34,US,1737219401
147,barranca,-10.75,-77.7667,23.82,70,13,5.82,PE,1737219593
148,tsiombe,-25.3,45.4833,25.25,90,97,5.95,MG,1737219595
149,parabel',58.6978,81.4825,-12.94,93,96,4.58,RU,1737219596
150,polyarnyy,69.1989,33.4478,1.77,100,100,8.59,RU,1737219598
151,enewetak,11.3474,162.3373,27.32,75,40,9.49,MH,1737219599
152,lerwick,60.1545,-1.1494,7.7,91,99,2.63,GB,1737219600
153,umba,66.6871,34.3429,2.07,79,97,9.49,RU,1737219601
154,radnevo,42.3,25.9333,2.27,78,1,1.04,BG,1737219602
155,saldanha,-33.0117,17.9442,23.03,77,0,7.18,ZA,1737219367
156,lebu,-37.6167,-73.65,16.53,64,0,7.67,CL,1737219605
157,wad medani,14.4012,33.5199,29.91,25,5,4.67,SD,1737219718
158,mirpur sakro,24.5474,67.6277,18.65,19,0,4.29,PK,1737219719
159,wailua homesteads,22.0669,-159.378,19.53,73,8,3.87,US,1737219720
160,maryville,35.7565,-83.9705,8.42,96,100,0.45,US,1737219555
161,greymouth,-42.4667,171.2,13.33,90,100,2.72,NZ,1737219723
162,kerema,-7.9631,145.7785,25.97,84,100,1.45,PG,1737219724
163,guerrero negro,27.9769,-114.0611,15.27,58,0,5.7,MX,1737219725
164,saint-pierre,-21.3393,55.4781,27.82,65,0,1.54,RE,1737219480
165,mount gambier,-37.8333,140.7667,15.95,56,8,2.26,AU,1737219727
166,baganga,7.5739,126.56,25.35,85,71,2.45,PH,1737219728
167,tezu,27.9167,96.1667,16.24,32,0,1.98,IN,1737219730
168,salinas,36.6777,-121.6555,7.5,87,100,5.14,US,1737219646
169,nyagan,62.1406,65.3936,-12.08,96,80,3.35,RU,1737219734
170,san luis de la loma,17.2706,-100.8939,28.47,51,0,2.14,MX,1737219736
171,capim grosso,-11.3811,-40.0128,31.05,38,9,3.1,BR,1737219740
172,salalah,17.0151,54.0924,21.43,58,0,0.63,OM,1737219741
173,fort riley north,39.1108,-96.8139,-8.35,66,20,6.69,US,1737219744
174,chegdomyn,51.1167,133.0167,-17.09,99,100,0.33,RU,1737219747
175,kandahar,31.0,65.75,4.18,90,100,3.66,AF,1737219748
176,corner brook,48.9667,-57.9484,-1.19,69,50,3.74,CA,1737219608
177,hailin,44.5833,129.4167,-15.35,96,11,0.98,CN,1737219755
178,mount pearl,47.5166,-52.7813,-0.93,82,24,2.24,CA,1737219787
179,kailua-kona,19.6406,-155.9956,19.77,76,0,0.89,US,1737219790
180,sao miguel do araguaia,-13.275,-50.1628,27.86,73,100,1.25,BR,1737219716
181,afaahiti,-17.75,-149.2833,26.22,79,100,4.74,PF,1737219797
182,mchinji,-13.7984,32.8802,22.0,75,100,1.32,MW,1737219798
183,port saint john's,-31.6229,29.5448,25.67,87,0,6.28,ZA,1737219799
184,punta arenas,-53.15,-70.9167,16.06,51,0,14.4,CL,1737219697
185,tvoroyri,61.5556,-6.8111,8.7,94,100,13.63,FO,1737219808
186,diamantino,-14.4086,-56.4461,25.93,81,100,1.82,BR,1737219810
187,mount isa,-20.7333,139.5,23.87,19,0,0.0,AU,1737219813
188,jamestown,42.097,-79.2353,2.23,97,100,4.63,US,1737219691
189,cabo san lucas,22.8909,-109.9124,22.09,58,0,3.09,MX,1737219816
190,sodra sandby,56.5667,16.6167,4.38,92,69,3.71,SE,1737219817
191,hobyo,5.3505,48.5268,23.93,72,85,8.31,SO,1737219818
192,goure,13.9835,10.2704,29.35,14,21,4.28,NE,1737219821
193,colonia,50.9333,6.95,2.2,83,0,2.06,DE,1737219816
194,geraldton,-28.7667,114.6,23.23,60,100,7.72,AU,1737219825
195,hermanus,-34.4187,19.2345,22.11,68,0,2.59,ZA,1737219826
196,broome,42.2506,-75.833,1.96,79,100,4.47,US,1737219830
197,menaka,15.9182,2.4022,31.16,11,51,3.34,ML,1737219831
198,zhangjiakou,40.81,114.8794,-5.32,53,40,2.96,CN,1737219835
199,papatowai,-46.5619,169.4708,10.25,91,100,3.85,NZ,1737219836
200,gobabis,-22.45,18.9667,32.04,11,17,4.75,NA,1737219837
201,kolokani,13.5728,-8.0339,30.58,11,82,3.81,ML,1737219838
202,muravlenko,63.7898,74.523,-13.12,94,99,7.44,RU,1737219839
203,qianzhou,28.3167,109.7167,8.53,60,7,0.53,CN,1737219841
204,ivdel',60.6911,60.4206,-7.97,96,100,1.71,RU,1737219843
205,terekli-mekteb,44.1671,45.8698,3.18,88,100,5.37,RU,1737219846
206,valparaiso,-33.0393,-71.6273,22.48,46,0,6.17,CL,1737219603
207,atafu village,-8.5421,-172.5159,27.96,76,36,5.36,TK,1737219851
208,okha,53.5739,142.9478,-17.66,93,97,2.67,RU,1737219853
209,tazacorte,28.629,-17.9293,20.54,80,20,4.63,ES,1737219854
210,todos santos,23.45,-110.2167,18.02,71,67,3.78,MX,1737219855
211,eyl,7.9803,49.8164,23.04,69,100,9.34,SO,1737219741
212,la'ie,21.6477,-157.9253,21.73,70,4,0.89,US,1737219858
213,san pedro pochutla,15.7333,-96.4667,30.95,42,0,3.11,MX,1737219859
214,newman,37.3138,-121.0208,8.41,71,31,1.16,US,1737219860
215,malango,-2.9627,119.9001,19.99,97,100,0.92,ID,1737219861
216,mitu,1.1983,-70.1733,33.13,30,48,2.34,CO,1737219862
217,plaza huincul,-38.926,-69.2086,28.11,13,0,2.97,AR,1737219863
218,saiha,22.4833,92.9667,14.54,60,3,1.66,IN,1737219865
219,palikir - national government center,6.9248,158.1611,27.64,74,99,8.38,FM,1737219866
220,galveston,29.3669,-94.9669,18.88,52,89,2.68,US,1737219867
221,guaranda,-1.6,-79.0,15.83,81,61,2.61,EC,1737219868
222,itapeva,-23.9822,-48.8756,24.2,88,100,5.7,BR,1737219869
223,laguna,38.421,-121.4238,3.08,100,100,2.06,US,1737219870
224,montecristo,8.2971,-74.4733,32.34,51,1,1.67,CO,1737219872
225,baoqing,46.3317,132.2111,-14.5,91,11,2.62,CN,1737219873
226,sos'va,59.1766,61.8558,-9.76,91,99,3.37,RU,1737219874
227,primero de mayo,-32.2552,-58.4228,34.34,29,26,2.01,AR,1737219875
228,ziro,27.6333,93.8333,4.86,86,4,0.73,IN,1737219876
229,santanyi,39.3546,3.1291,12.0,63,100,9.36,ES,1737219877
230,maragogi,-9.0122,-35.2225,28.12,65,99,4.55,BR,1737219660
231,port blair,11.6667,92.75,27.02,74,20,3.09,IN,1737219627
232,vila franca do campo,37.7167,-25.4333,18.23,74,57,1.29,PT,1737219881
233,badger,64.8,-147.5333,-17.86,83,0,0.0,US,1737219882
234,shahr-e babak,30.1165,55.1186,1.69,58,5,2.02,IR,1737219883
235,cabedelo,-6.9811,-34.8339,30.37,67,98,5.07,BR,1737219610
236,sandnessjoen,66.0217,12.6316,1.16,98,100,6.8,NO,1737219885
237,asau,46.4333,26.4,0.99,73,40,3.42,RO,1737219886
238,dean funes,-30.4204,-64.3498,32.14,28,80,4.13,AR,1737219887
239,yelizovo,53.1873,158.3805,-16.92,66,0,4.0,RU,1737219609
240,kitakami,39.2833,141.1167,-3.23,95,69,0.24,JP,1737219707
241,tirumullaivasal,11.2333,79.8333,24.55,89,100,5.2,IN,1737219891
242,mineros,-17.1167,-63.2333,35.01,43,19,2.68,BO,1737219892
243,nueva guinea,11.6876,-84.4562,21.71,97,99,3.47,NI,1737219893
244,chibougamau,49.9168,-74.3659,-2.21,93,100,7.2,CA,1737219647
245,opuwo,-18.0607,13.84,30.26,20,62,8.77,NA,1737219895
246,vieste,41.8825,16.175,10.21,91,100,5.96,IT,1737219896
247,queenstown,-31.8976,26.8753,26.31,44,1,5.28,ZA,1737219762
248,lethem,3.3803,-59.7968,35.97,27,23,4.41,GY,1737219899
249,russellville,35.2784,-93.1338,8.32,63,0,4.12,US,1737219900
250,comodoro rivadavia,-45.8667,-67.5,23.92,29,0,5.66,AR,1737219901
251,new norfolk,-42.7826,147.0587,13.17,99,19,0.88,AU,1737219326
252,pisco,-13.7,-76.2167,25.03,69,0,5.14,PE,1737219324
253,nako,31.8814,78.627,-4.67,95,100,1.83,IN,1737219904
254,klyuchi,52.2667,79.1667,-15.87,99,51,2.77,RU,1737219905
255,zapolyarnyy,69.4154,30.8136,0.63,89,100,12.67,RU,1737219907
256,kruisfontein,-34.0033,24.7314,21.39,70,0,6.08,ZA,1737219909
257,sao jose da coroa grande,-8.8978,-35.1478,27.92,67,93,4.15,BR,1737219641
258,kargasok,59.0556,80.8572,-13.12,93,97,4.81,RU,1737219911
259,qamdo,31.1667,97.2333,-3.07,43,10,2.01,CN,1737219724
260,betioky,-23.7167,44.3833,26.59,77,97,4.99,MG,1737219864
261,kismayo,-0.3582,42.5454,24.86,86,53,7.56,SO,1737219915
262,san mariano,7.5,126.0,21.68,92,43,1.21,PH,1737219916
263,dapa,9.7594,126.0531,26.17,78,89,2.31,PH,1737219917
264,hovd,48.0056,91.6419,-14.09,78,99,1.31,MN,1737219766
265,nha trang,12.25,109.1833,23.0,83,89,3.04,VN,1737219920
266,port mathurin,-19.6833,63.4167,26.23,77,18,6.42,MU,1737219921
267,hadibu,12.65,54.0333,22.75,68,28,4.82,YE,1737219922
268,shalqar,47.8333,59.6,-3.62,97,96,3.88,KZ,1737219924
269,plouzane,48.3833,-4.6167,4.1,87,40,4.12,FR,1737219925
270,lander,42.833,-108.7307,-12.23,78,100,0.0,US,1737219927
271,rawai,7.7797,98.3253,26.17,73,97,3.44,TH,1737219341
272,oroqen zizhiqi,50.5667,123.7167,-16.78,99,100,0.76,CN,1737219929
273,flying fish cove,-10.4217,105.6791,24.82,88,87,2.06,CX,1737219930
274,mangalia,43.8,28.5833,4.97,59,5,5.53,RO,1737219931
275,remire-montjoly,4.9167,-52.2667,31.02,58,0,4.63,GF,1737219932
276,rio verde de mato grosso,-18.9181,-54.8442,23.31,90,100,1.28,BR,1737219933
277,newport,51.5877,-2.9984,4.69,87,71,0.62,GB,1737219722
278,dondo,-19.6094,34.7431,29.73,91,79,1.56,MZ,1737219936
279,itoman,26.1247,127.6694,17.01,63,87,2.06,JP,1737219937
280,sovetskaya gavan',48.9723,140.2878,-12.94,91,93,0.69,RU,1737219939
281,jijiga,9.35,42.8,16.47,35,68,4.48,ET,1737219940
282,road town,18.4167,-64.6167,28.02,69,20,7.2,VG,1737219941
283,great falls,47.5002,-111.3008,-12.75,86,100,10.29,US,1737219942
284,tambopata,-12.7333,-69.1833,31.94,58,40,4.12,PE,1737219943
285,haradok,55.4624,29.9816,1.89,73,12,5.79,BY,1737219945
286,hasaki,35.7333,140.8333,8.19,56,8,2.82,JP,1737219946
287,wanning,18.8003,110.3967,17.43,85,53,2.66,CN,1737219947
288,west fargo,46.875,-96.9004,-18.34,73,100,7.72,US,1737219948
289,humberto de campos,-2.5983,-43.4611,24.56,91,100,2.57,BR,1737219949
290,kavieng,-2.5744,150.7967,27.55,81,96,4.93,PG,1737219950
291,camilla,31.2313,-84.2105,11.42,97,100,3.43,US,1737219951
292,houma,29.5958,-90.7195,19.44,92,75,3.6,US,1737219952
293,quesada,10.3238,-84.4271,22.34,90,100,2.69,CR,1737219954
294,inari,68.906,27.0288,0.21,76,88,8.13,FI,1737219955
295,coquimbo,-29.9533,-71.3436,21.85,64,0,5.14,CL,1737219956
296,saipan,15.1355,145.701,25.39,87,40,3.6,MP,1737219957
297,taroa,8.7058,171.2275,26.86,80,75,11.01,MH,1737219959
298,quila,24.4228,-107.22,23.35,32,83,2.78,MX,1737219960
299,carbonear,47.7332,-53.2148,0.08,72,17,1.86,CA,1737219961
300,anchorage,61.2181,-149.9003,0.21,76,20,4.12,US,1737219963
301,nurlat,54.4277,50.8051,-7.66,96,92,4.1,RU,1737219964
302,kapa'a,22.0752,-159.319,18.18,82,40,3.09,US,1737219965
303,vadso,70.0744,29.7487,2.09,87,40,22.64,NO,1737219966
304,padang,-0.9492,100.3543,25.03,83,100,1.61,ID,1737219967
305,magpet,7.1119,125.1133,22.27,87,42,2.16,PH,1737219968
306,port douglas,-16.4833,145.4667,26.91,78,100,1.77,AU,1737219969
307,east london,-33.0153,27.9116,24.52,83,75,7.72,ZA,1737219970
308,kayes,14.0,-11.0,31.69,10,93,4.18,ML,1737219972
309,argo,37.6333,22.7333,9.64,76,0,2.3,GR,1737219973
310,tralee,52.2704,-9.7026,12.14,71,75,2.06,IE,1737219974
311,christies beach,-35.1396,138.4698,23.93,29,2,3.41,AU,1737219975
312,tsumeb,-19.2333,17.7167,31.31,20,100,1.92,NA,1737219976
313,mezhdurechenskiy,59.6,65.9333,-11.06,94,98,3.17,RU,1737219977
314,talakan,50.3167,130.3667,-14.2,98,100,1.21,RU,1737219979
315,hueyapan,18.8667,-98.6667,18.37,49,7,2.11,MX,1737219980
316,manda,-10.4667,34.5833,26.38,78,99,2.76,TZ,1737219981
317,novaya mayna,54.15,49.75,-3.67,96,100,3.97,RU,1737219984
318,walvis bay,-22.9575,14.5053,19.6,70,6,4.68,NA,1737219986
319,nadi,-17.8,177.4167,25.0,88,20,1.03,FJ,1737219987
320,igrim,63.1906,64.4162,-12.72,97,46,2.45,RU,1737219988
321,san ignacio rio muerto,27.4167,-110.2333,18.92,30,7,1.0,MX,1737219989
322,manokwari,-0.8667,134.0833,26.11,82,99,1.59,ID,1737219991
323,pine bluff,34.2284,-92.0032,10.96,67,100,5.66,US,1737219840
324,aoulef,26.9667,1.0833,16.1,18,0,1.26,DZ,1737219993
325,usinsk,65.9939,57.5281,-7.0,96,100,3.98,RU,1737219994
326,lospalos,-8.5186,127.0025,23.18,93,100,1.35,TL,1737219995
327,jeddah,21.5169,39.2192,25.92,69,0,4.12,SA,1737219996
328,wuhai,39.6647,106.8122,-3.81,43,27,1.81,CN,1737219998
329,vila velha,-20.3297,-40.2925,31.97,74,20,6.69,BR,1737219902
330,bengkulu,-3.8004,102.2655,25.29,86,100,1.74,ID,1737220000
331,bobrov,51.0961,40.0333,1.54,93,100,5.66,RU,1737220001
332,dryden,49.7833,-92.7503,-25.84,64,75,4.12,CA,1737219800
333,ta`u,-14.2336,-169.5144,27.12,77,6,2.23,AS,1737220003
334,meadow lake,34.8014,-106.5436,5.48,36,0,5.95,US,1737220004
335,mamuju,-2.6748,118.8885,26.61,86,99,0.63,ID,1737220005
336,motueka,-41.1333,173.0167,12.68,92,62,1.86,NZ,1737220007
337,lubang,13.8584,120.124,26.65,78,61,7.97,PH,1737220008
338,port elizabeth,-33.918,25.5701,22.4,90,0,2.24,ZA,1737220009
339,homer,59.6425,-151.5483,5.94,75,100,5.14,US,1737220010
340,portland,45.5234,-122.6762,2.25,95,100,2.68,US,1737219773
341,la cruz,23.9167,-106.9,23.01,39,29,2.23,MX,1737220013
342,ke-macina,13.9623,-5.3572,29.79,10,95,4.98,ML,1737220014
343,aasiaat,68.7098,-52.8699,-14.71,79,100,4.28,GL,1737219799
344,princeville,45.7668,-61.2985,-0.13,62,60,2.24,CA,1737220016
345,nadym,65.5333,72.5167,-12.74,95,100,4.09,RU,1737220018
346,tangalle,6.024,80.7911,23.98,95,100,5.35,LK,1737220019
347,sinabang,2.4803,96.3801,26.02,83,99,2.85,ID,1737220020
348,merritt,50.1123,-120.7942,-12.86,98,98,0.17,CA,1737220022
349,shiqian,27.5225,108.2281,7.32,78,7,0.93,CN,1737220023
350,brisas de zicatela,15.8369,-97.0419,28.29,69,0,2.06,MX,1737220024
351,liwonde,-15.0506,35.2035,25.55,80,99,1.89,MW,1737220025
352,chos malal,-37.3781,-70.2709,27.71,15,1,3.36,AR,1737220026
353,ouadda,8.0777,22.4007,29.94,20,65,2.19,CF,1737220027
354,divnomorskoye,44.5011,38.1353,4.83,77,100,3.18,RU,1737220028
355,al jubayl,27.0112,49.6583,17.18,52,42,5.13,SA,1737219764
356,barghat,22.0333,79.7167,16.73,41,1,3.35,IN,1737220031
357,isla vista,34.4133,-119.861,12.56,76,100,0.0,US,1737220032
358,de aar,-30.6497,24.0123,32.38,11,0,1.13,ZA,1737220033
359,aitape,-3.1374,142.3475,25.41,89,100,1.26,PG,1737220034
360,annaba,36.9,7.7667,11.8,78,60,4.4,DZ,1737220035
361,luderitz,-26.6481,15.1594,19.51,77,4,4.56,NA,1737220037
362,antsiranana,-12.2787,49.2917,24.39,89,78,1.72,MG,1737220038
363,marsa alam,25.0757,34.8918,19.76,62,78,6.04,EG,1737220039
364,umm kaddadah,13.6017,26.6876,26.26,27,0,5.51,SD,1737220040
365,borgarnes,64.5383,-21.9206,-2.77,92,100,5.3,IS,1737220041
366,topolovgrad,42.0833,26.3333,2.37,81,0,0.91,BG,1737220042
367,arraias,-12.9288,-46.9437,27.35,62,6,1.74,BR,1737220043
368,tacna,-18.0056,-70.2483,25.11,50,20,6.69,PE,1737219908
369,constantia,44.1833,28.65,2.61,61,25,7.16,RO,1737220046
370,alice springs,-23.7,133.8833,19.75,24,0,0.0,AU,1737219787
371,alofi,-19.0595,-169.9187,21.94,94,7,1.03,NU,1737219750
372,nanao,37.05,136.9667,0.54,84,40,1.08,JP,1737220049
373,mbulu,-3.85,35.5333,18.49,65,98,1.19,TZ,1737220050
374,empalme,27.9667,-110.8167,16.03,41,0,0.0,MX,1737220051
375,trairi,-3.2778,-39.2689,29.51,60,98,4.53,BR,1737219922
376,lazaro cardenas,17.9583,-102.2,27.72,55,23,0.9,MX,1737220053
377,ancud,-41.8697,-73.8203,16.8,63,0,3.46,CL,1737219781
378,santa maria do para,-1.3503,-47.5756,23.71,95,100,2.29,BR,1737220056
379,zeya,53.75,127.2667,-21.63,95,100,1.55,RU,1737220057
380,yaren,-0.5472,166.916,27.37,82,37,7.73,NR,1737220058
381,puerto armuelles,8.2833,-82.8667,25.61,71,4,0.45,PA,1737220059
382,bovalino,38.149,16.174,11.83,84,6,1.92,IT,1737220060
383,kolonia town,6.964,158.206,28.2,75,99,8.34,FM,1737220062
384,uturoa,-16.7333,-151.4333,27.32,77,95,5.04,PF,1737220063
385,el calafate,-50.3408,-72.2768,14.51,60,52,5.54,AR,1737220064
386,kerikeri,-35.2268,173.9474,16.62,92,100,1.79,NZ,1737220066
387,shuangjiang,26.1547,109.7138,6.57,55,14,1.51,CN,1737220067
388,mugia,43.1041,-9.2179,13.28,72,6,7.64,ES,1737220068
389,shumikha,55.2261,63.2961,-16.51,95,18,3.79,RU,1737220070
390,skovorodino,53.9833,123.9167,-22.67,100,100,0.86,RU,1737220071
391,amos,48.5669,-78.1162,-11.88,90,100,5.29,CA,1737220073
392,amalapuram,16.5833,82.0167,20.2,86,64,1.49,IN,1737220074
393,senhor do bonfim,-10.4614,-40.1894,26.6,48,8,2.85,BR,1737220075
394,inirida,3.8653,-67.9239,35.01,33,72,0.17,CO,1737220076
395,arkalyk,50.2486,66.9114,-9.75,97,100,3.63,KZ,1737220078
396,idri,27.5,13.2667,15.21,27,100,1.81,LY,1737220079
397,phan thiet,10.9333,108.1,23.37,77,97,1.9,VN,1737220080
398,spearfish,44.4908,-103.8594,-12.07,71,75,6.69,US,1737220081
399,castillos,-34.1667,-53.8333,26.66,62,70,5.25,UY,1737220082
400,santa cruz,-17.8,-63.1667,34.03,52,20,7.2,BO,1737219810
401,sechura,-5.5569,-80.8222,28.03,51,13,4.46,PE,1737220084
402,rawlins,41.7911,-107.2387,-14.8,72,100,3.6,US,1737220039
403,nova vicosa,-17.8919,-39.3719,28.89,62,35,4.53,BR,1737220087
404,merizo village,13.2658,144.6691,26.31,86,9,5.06,GU,1737220088
405,san carlos,9.6612,-68.5827,35.03,33,4,2.15,VE,1737220089
406,musan-up,42.2261,129.2078,-5.49,59,31,1.67,KP,1737220090
407,mejit,10.2753,170.8646,26.53,79,42,10.34,MH,1737220091
408,kirensk,57.7853,108.1119,-9.06,97,100,1.36,RU,1737220092
409,st. john's,47.5649,-52.7093,-0.47,79,17,2.68,CA,1737219964
410,campoverde,-8.4753,-74.8058,31.83,37,100,1.82,PE,1737220094
411,kilindoni,-7.9139,39.6668,27.16,83,75,7.03,TZ,1737220096
412,kyren,51.6828,102.1408,-8.07,80,100,1.26,RU,1737220097
413,ceeldheer,3.8488,47.1806,23.82,76,18,9.02,SO,1737220098
414,mar del plata,-38.0023,-57.5575,21.64,77,47,1.34,AR,1737220021
415,sitka,57.0531,-135.33,2.94,93,100,3.09,US,1737220100
416,kiunga,-6.1219,141.2906,23.1,98,91,0.6,PG,1737220101
417,goulburn,-34.75,149.7167,12.66,93,86,1.34,AU,1737220102
418,waddan,29.1614,16.139,14.81,31,100,2.97,LY,1737220103
419,qom,34.6401,50.8764,6.67,57,23,4.29,IR,1737219882
420,gagnoa,6.1293,-5.9437,31.74,20,100,0.82,CI,1737220106
421,abnub,27.2696,31.1511,19.72,20,100,4.98,EG,1737220107
422,tidjikja,18.5564,-11.4271,23.08,6,75,5.11,MR,1737220109
423,mansa,29.9833,75.3833,13.8,37,100,0.55,IN,1737220110
424,xining,36.6167,101.7667,-6.31,57,35,0.8,CN,1737220111
425,paradip garh,20.3167,86.6167,20.67,64,1,1.31,IN,1737219900
426,manaure,11.7751,-72.4445,30.88,51,4,9.15,CO,1737220113
427,hailar,49.2,119.7,-23.12,100,50,1.6,CN,1737220114
428,heihe,50.2441,127.4902,-17.88,95,100,2.53,CN,1737220117
429,amahai,-3.3333,128.9167,26.16,87,99,2.62,ID,1737220118
430,kijang,35.2442,129.2139,3.86,47,100,2.71,KR,1737220119
431,mezhdurechensk,53.6942,88.0603,-6.72,93,100,2.88,RU,1737220120
432,quellon,-43.1167,-73.6167,15.58,65,1,4.77,CL,1737220121
433,teluknaga,-6.0989,106.6381,26.77,94,75,1.79,ID,1737220122
434,montepuez,-13.1256,38.9997,24.48,80,100,1.79,MZ,1737220123
435,taguatinga,-12.3857,-46.5711,29.13,61,46,2.61,BR,1737220124
436,myeik,12.4333,98.6,23.38,74,59,1.99,MM,1737219844
437,howrah,22.5892,88.3103,19.0,68,0,0.0,IN,1737220127
438,wajir,1.7471,40.0573,30.16,30,100,1.37,KE,1737220129
439,fukuecho,32.6881,128.8419,8.37,66,90,1.96,JP,1737220130
440,baruun-urt,46.6806,113.2792,-14.14,73,1,2.86,MN,1737220131
441,qui nhon,13.7667,109.2333,18.96,83,78,3.5,VN,1737220132
442,vilyuysk,63.7553,121.6247,-30.18,98,99,1.61,RU,1737220133
443,bechar,31.6167,-2.2167,10.53,44,94,4.47,DZ,1737220135
444,puerto santa,-8.9906,-78.6456,22.73,76,27,4.63,PE,1737220136
445,vuktyl,63.8567,57.3094,-6.06,95,100,4.97,RU,1737220137
446,mcgregor,26.5609,-81.9145,23.93,83,40,4.63,US,1737220139
447,langfang,39.5097,116.6947,0.67,29,1,2.72,CN,1737220140
448,tamanrasset,22.785,5.5228,16.95,15,0,2.06,DZ,1737220141
449,upington,-28.4478,21.2561,34.41,22,88,6.05,ZA,1737220142
450,tobelo,1.7284,128.0095,26.89,81,50,2.4,ID,1737220143
451,noumea,-22.2763,166.4572,27.78,99,100,1.17,NC,1737220039
452,funadhoo,6.15,73.2667,27.4,78,47,6.68,MV,1737220146
453,argostolion,38.1811,20.489,12.08,57,0,2.25,GR,1737220147
454,chu,43.5983,73.7614,1.15,99,100,2.27,KZ,1737220148
455,peace river,56.2501,-117.286,-21.83,94,100,3.09,CA,1737220149
456,i-n-salah,27.1935,2.4607,16.09,18,0,2.35,DZ,1737220150
457,youkounkoun,12.5333,-13.1333,35.45,11,49,2.99,GN,1737220151
458,tomatlan,19.9333,-105.25,30.55,23,0,1.52,MX,1737220152
459,ganjam,19.3833,85.0667,20.65,72,1,0.8,IN,1737220154
460,konskie,51.1917,20.4061,-0.94,95,4,1.57,PL,1737220155
461,loukhi,66.0764,33.0381,-0.27,76,56,7.93,RU,1737220156
462,weno,7.4515,151.8468,27.97,83,100,5.66,FM,1737220157
463,caconda,-13.7333,15.0667,19.85,73,100,4.06,AO,1737220159
464,anar darah,32.7587,61.654,5.37,66,93,2.54,AF,1737220160
465,kalabo,-14.97,22.6814,21.73,83,100,1.99,ZM,1737220161
466,vernon,50.2581,-119.2691,-5.04,74,93,0.27,CA,1737220162
467,saint-joseph,-21.3667,55.6167,27.21,79,94,3.63,RE,1737220163
468,paoua,7.2427,16.4406,30.93,18,97,0.46,CF,1737220164
469,east ballina,-28.8667,153.5833,22.72,77,100,9.98,AU,1737220166
470,tarrafal,15.2833,-23.7667,22.48,60,0,8.86,CV,1737220167
471,sibolga,1.7427,98.7792,24.7,89,100,1.23,ID,1737220168
472,luang namtha,20.9497,101.4011,14.76,72,42,0.68,LA,1737220169
473,guiratinga,-16.3494,-53.7583,23.84,80,100,3.36,BR,1737219911
474,lubango,-14.9172,13.4925,20.56,58,95,4.28,AO,1737220171
475,arraial do cabo,-22.9661,-42.0278,32.92,58,0,5.66,BR,1737220165
476,formosa,-26.1775,-58.1781,40.54,29,0,0.89,AR,1737220173
477,rongelap,11.1635,166.8941,26.73,79,64,10.32,MH,1737220175
478,ekenas,59.9736,23.4339,2.72,75,4,3.68,FI,1737220176
479,medina,24.4686,39.6142,22.24,24,0,1.03,SA,1737220177
480,urengoy,65.9667,78.3667,-12.37,95,100,4.1,RU,1737220178
481,shingu,33.7333,135.9833,5.93,80,100,2.17,JP,1737220179
482,kalevala,65.2,31.1667,-2.57,75,29,8.17,RU,1737220180
483,at taj,24.2049,23.2857,22.22,23,35,4.45,LY,1737220181
484,rosarito,32.3333,-117.0333,11.51,67,25,1.19,MX,1737220183
485,zaterechnyy,44.7931,45.2097,2.94,80,100,5.62,RU,1737220184
486,oliva,38.9197,-0.1194,12.12,67,100,1.79,ES,1737220185
487,bouznika,33.7894,-7.1597,15.19,61,0,3.63,MA,1737220186
488,mil'kovo,55.6078,37.7956,2.73,65,100,6.72,RU,1737220187
489,gbarnga,6.9956,-9.4722,36.59,14,10,1.18,LR,1737220176
490,oguta,5.7089,6.8103,30.38,55,95,4.38,NG,1737220190
491,gebeit,21.0667,36.3167,19.11,60,35,2.92,SD,1737220191
492,bay harbor,30.1471,-85.6146,21.23,90,20,7.72,US,1737220192
493,teknaf,20.8624,92.3058,18.7,67,50,4.46,BD,1737220193
494,coyhaique,-45.5752,-72.0662,16.96,62,34,4.2,CL,1737220026
495,severo-yeniseyskiy,60.3725,93.0408,-17.01,99,94,2.12,RU,1737220195
496,den burg,53.0542,4.7972,-0.02,93,100,3.6,NL,1737220196
497,amga,60.8953,131.9608,-27.45,98,100,0.85,RU,1737220198
498,keetmanshoop,-26.5833,18.1333,35.89,7,0,3.96,NA,1737220199
499,puerto deseado,-47.7503,-65.8938,18.77,47,0,3.63,AR,1737220200
500,zarzis,33.504,11.1122,14.04,46,0,5.26,TN,1737220201
501,harstad,68.799,16.5293,0.64,84,100,4.49,NO,1737220202
502,lompoc,34.6391,-120.4579,10.63,82,100,1.54,US,1737220203
503,dzuunharaa,48.8523,106.4579,-14.15,82,36,1.54,MN,1737220204
504,satipo,-11.2522,-74.6386,26.97,77,90,0.57,PE,1737220205
505,conduaga,8.862,117.4893,24.37,86,78,1.2,PH,1737220207
506,gereida,11.2811,25.1414,28.98,21,11,4.34,SD,1737220208
507,ciudad lazaro cardenas,17.9583,-102.2,27.72,55,23,0.9,MX,1737220173
508,necochea,-38.5473,-58.7368,25.83,34,61,7.17,AR,1737219955
509,morondava,-20.2833,44.2833,29.27,77,100,6.99,MG,1737220212
510,timbuktu,16.7735,-3.0074,25.57,9,95,4.8,ML,1737220144
511,lupane,-18.9315,27.807,20.49,91,85,2.08,ZW,1737220214
512,hammerfest,70.6634,23.6821,1.25,93,75,3.09,NO,1737220215
513,bayanaul,50.7889,75.6956,-12.17,94,100,2.81,KZ,1737220216
514,yabelo,4.8833,38.0833,19.56,28,97,2.92,ET,1737220218
515,cambria,35.5641,-121.0808,11.31,53,26,1.08,US,1737220054
516,ghat,24.9647,10.1728,14.71,31,100,0.99,LY,1737220220
517,freetown,8.484,-13.2299,28.07,65,100,2.88,SL,1737220221
518,novodvinsk,64.4165,40.8122,0.86,98,100,5.62,RU,1737220222
519,vinukonda,16.05,79.75,20.1,87,24,1.47,IN,1737220224
520,rexburg,43.826,-111.7897,-14.01,66,0,2.06,US,1737220065
521,adrar,20.5022,-10.0711,21.31,9,73,4.31,MR,1737220226
522,tullamore,53.2739,-7.4889,8.97,87,41,4.89,IE,1737220227
523,rio grande,-32.035,-52.0986,27.34,71,76,2.84,BR,1737220228
524,coruripe,-10.1256,-36.1756,27.85,65,100,5.3,BR,1737220191
525,ampanihy,-24.7,44.75,24.9,88,90,6.06,MG,1737220230
526,baishan,41.9431,126.4286,-10.81,96,65,1.32,CN,1737220231
527,isangel,-19.55,169.2667,25.37,80,100,1.18,VU,1737220232
528,bikenibeu village,1.3673,173.1241,26.98,89,40,5.66,KI,1737220234
529,waimea,20.0231,-155.6717,16.92,93,36,0.89,US,1737220235
530,el granada,37.5027,-122.4694,9.64,89,0,0.45,US,1737220236
531,las tablas,7.7667,-80.2833,28.59,68,8,4.75,PA,1737219986
532,khash,28.2211,61.2158,3.93,88,100,3.88,IR,1737220239
533,colac,-38.3333,143.5833,13.48,91,3,2.36,AU,1737220241
534,abay,49.6311,72.8539,-11.13,97,100,3.89,KZ,1737220242
535,salaverry,-8.2333,-78.9667,20.21,83,52,4.7,PE,1737220243
536,haimen,23.1935,116.6142,12.45,88,21,3.9,CN,1737220244
537,imam sahib,37.189,68.9364,4.1,92,100,4.31,AF,1737220245
538,san borja,-14.8167,-66.85,31.33,57,99,1.22,BO,1737220248
539,boende,-0.2167,20.8667,27.08,61,79,1.49,CD,1737220249
540,namsos,64.4662,11.4957,1.95,93,100,3.09,NO,1737220251
541,santa maria del oro,25.9333,-105.3667,17.49,21,83,5.86,MX,1737220252
542,bich'vinta,43.1592,40.3378,6.8,86,100,2.35,GE,1737220253
543,kinablangan,7.6947,126.5503,24.53,85,74,1.9,PH,1737220254
544,iskateley,67.6803,53.1512,-9.91,95,100,7.1,RU,1737220256
545,hantsavichy,52.758,26.43,2.8,88,90,5.26,BY,1737220257
546,ashland,40.8167,-82.2665,2.37,99,100,5.35,US,1737220245
547,madalena,41.2162,-8.3345,13.32,68,0,1.31,PT,1737220259
548,port augusta,-32.5,137.7667,23.93,25,0,2.3,AU,1737220260
549,ola,59.5833,151.2833,-23.09,97,64,3.17,RU,1737220261
550,grand-bourg,15.8835,-61.3148,26.54,77,12,11.65,GP,1737220262
551,colon,9.3592,-79.9014,32.42,66,20,3.58,PA,1737220202
552,bel ombre,-4.6167,55.4167,27.47,78,74,7.39,SC,1737220265
553,padre paraiso,-17.0742,-41.4844,26.78,51,23,2.82,BR,1737220266
554,antofagasta,-23.65,-70.4,23.6,70,13,4.53,CL,1737220032
555,bardai,11.65,7.2333,29.8,13,51,3.64,NG,1737220268
556,posto fiscal rolim de moura,-13.0833,-62.2667,30.04,62,98,3.14,BR,1737220270
557,shevchenko,48.5,35.0,3.17,85,88,5.35,UA,1737220271
558,cestos city,5.46,-9.5828,29.2,65,37,4.56,LR,1737220272
559,bondo,3.8146,23.6866,28.51,35,69,0.47,CD,1737220273
560,sretensk,52.2453,117.7093,-25.12,100,91,0.52,RU,1737220274
561,marka,1.7159,44.7717,24.48,83,73,7.92,SO,1737220275
562,san antonio de pale,-1.4014,5.6325,27.29,77,76,4.65,GQ,1737220276
563,muroto-misakicho,33.2833,134.15,10.2,62,100,0.68,JP,1737220278
564,novoutkinsk,56.993,59.5571,-10.63,92,99,4.29,RU,1737220279
565,nagai,38.1036,140.035,-8.39,96,35,1.34,JP,1737220280
566,saurimo,-9.6608,20.3916,18.47,96,100,0.71,AO,1737220281
567,porto franco,-6.3383,-47.3992,27.59,78,95,1.35,BR,1737220282
568,scottburgh,-30.2867,30.7532,23.82,87,0,7.28,ZA,1737220283
569,chachapoyas,-6.2317,-77.869,18.44,64,54,1.7,PE,1737220284
570,nova sintra,14.8667,-24.7167,22.87,64,0,3.33,CV,1737220285
571,abancay,-13.6339,-72.8814,21.93,56,100,3.33,PE,1737220287
572,ammon,43.4696,-111.9666,-14.54,87,0,1.54,US,1737220288
573,joshimath,30.5667,79.5667,4.99,53,100,3.28,IN,1737220290
574,ondangwa,-17.9167,15.95,33.6,13,94,3.51,NA,1737220291
575,karakecili,39.5942,33.3778,3.96,57,20,2.28,TR,1737220292
576,junnar,19.2,73.8833,19.4,38,0,2.16,IN,1737220293
577,kendari,-3.945,122.4989,24.98,95,100,1.2,ID,1737220295
578,san julian,21.0167,-102.1667,20.42,24,13,4.32,MX,1737220296
579,dunedin,-45.8742,170.5036,11.56,93,100,3.58,NZ,1737220297
580,florence,43.7667,11.25,9.82,47,75,4.12,IT,1737220298
581,ialibu,-6.2821,143.9935,14.92,95,100,0.61,PG,1737220299
582,axim,4.8699,-2.2405,28.47,72,34,5.27,GH,1737220300
583,mogocha,53.7333,119.7667,-23.22,99,71,1.67,RU,1737220301
584,cascais,38.6979,-9.4215,14.73,57,20,2.06,PT,1737220302
585,sligo,54.2697,-8.4694,9.96,71,0,5.66,IE,1737220304
586,timmins,48.4669,-81.3331,-15.1,72,100,4.63,CA,1737220305
587,akureyri,65.6835,-18.0878,-5.23,97,100,2.17,IS,1737220306
588,aripuana,-9.1667,-60.6333,22.58,100,100,0.31,BR,1737220308
589,ketchikan,55.3422,-131.6461,1.1,89,75,0.89,US,1737220262
